% program   : RTKLIB ver.demo5 b34j
% inp file  : D:\WORKTOP\GNSS\Database\GS\2024\080\GSJC07080.24o
% inp file  : D:\WORKTOP\GNSS\Database\GS\2024\080\GSJZ080.24o
% inp file  : D:\WORKTOP\GNSS\Database\GS\2024\080\brdm0800.24p
% inp file  :  
% inp file  :  
% obs start : 2024/03/20 00:00:30.0 GPST (week2306 259230.0s)
% obs end   : 2024/03/21 00:00:10.0 GPST (week2306 345610.0s)
% pos mode  : Static
% freqs     : L1+L2/E5b
% solution  : Forward
% elev mask : 10.0 deg
% dynamics  : on
% tidecorr  : off
% ionos opt : Broadcast
% tropo opt : Saastamoinen
% ephemeris : Broadcast
% navi sys  : BDS
% amb res   : Fix and Hold
% val thres : 3.0
% antenna1  :                       ( 0.0000  0.0000  0.0000)
% antenna2  :                       ( 0.0000  0.0000  0.0000)
% ref pos   : -2599909.6653   4786165.6454   3307588.3507
%
% (x/y/z-ecef=WGS84,Q=1:fix,2:float,3:sbas,4:dgps,5:single,6:ppp,ns=# of satellites)
%  GPST                      x-ecef(m)      y-ecef(m)      z-ecef(m)   Q  ns   sdx(m)   sdy(m)   sdz(m)  sdxy(m)  sdyz(m)  sdzx(m) age(s)  ratio
2024/03/20 00:00:30.000  -2599928.9690   4786483.9966   3307118.3021   2  18   1.4160   2.3920   1.3491  -1.5262   1.4822  -1.0412   0.00    0.0
2024/03/20 00:00:40.000  -2599929.1910   4786484.3508   3307118.3233   2  18   1.0139   1.6894   0.9461  -1.0778   1.0339  -0.7279   0.00    0.0
2024/03/20 00:00:50.000  -2599929.2634   4786484.5555   3307118.2487   2  18   0.8098   1.3187   0.7279  -0.8420   0.7867  -0.5590   0.00    0.0
2024/03/20 00:01:00.000  -2599929.3448   4786484.9106   3307118.3423   2  18   0.6773   1.0727   0.5814  -0.6860   0.6193  -0.4458   0.00    0.0
2024/03/20 00:01:10.000  -2599929.4271   4786485.0823   3307118.3024   2  18   0.5814   0.8945   0.4754  -0.5733   0.4979  -0.3642   0.00    0.0
2024/03/20 00:01:20.000  -2599929.5617   4786485.3356   3307118.4442   2  18   0.5079   0.7594   0.3959  -0.4881   0.4074  -0.3032   0.00    0.0
2024/03/20 00:01:30.000  -2599929.5023   4786485.3567   3307118.3989   2  18   0.4492   0.6541   0.3349  -0.4218   0.3387  -0.2565   0.00    0.0
2024/03/20 00:01:40.000  -2599929.5489   4786485.4261   3307118.4449   2  18   0.4012   0.5702   0.2872  -0.3690   0.2856  -0.2202   0.00    0.0
2024/03/20 00:01:50.000  -2599929.5247   4786485.4125   3307118.4116   2  18   0.3610   0.5021   0.2492  -0.3261   0.2440  -0.1913   0.00    0.0
2024/03/20 00:02:00.000  -2599929.5235   4786485.3817   3307118.4084   2  18   0.3269   0.4460   0.2186  -0.2906   0.2110  -0.1681   0.00    0.0
2024/03/20 00:02:10.000  -2599929.5346   4786485.3979   3307118.4114   2  18   0.2975   0.3992   0.1935  -0.2610   0.1843  -0.1491   0.00    0.0
2024/03/20 00:02:20.000  -2599929.5030   4786485.3676   3307118.3941   2  19   0.2721   0.3589   0.1726  -0.2357   0.1623  -0.1333   0.00    0.0
2024/03/20 00:02:30.000  -2599929.4622   4786485.3298   3307118.3753   2  19   0.2498   0.3252   0.1552  -0.2142   0.1444  -0.1200   0.00    0.0
2024/03/20 00:02:40.000  -2599929.5372   4786485.2513   3307118.3013   1  19   0.0014   0.0023   0.0013  -0.0015   0.0014  -0.0010   0.00    8.6
2024/03/20 00:02:50.000  -2599929.5371   4786485.2509   3307118.3011   1  19   0.0013   0.0022   0.0013  -0.0014   0.0014  -0.0010   0.00    8.6
2024/03/20 00:03:00.000  -2599929.5370   4786485.2507   3307118.3009   1  19   0.0013   0.0022   0.0012  -0.0014   0.0014  -0.0009   0.00    8.7
2024/03/20 00:03:10.000  -2599929.5367   4786485.2503   3307118.3006   1  19   0.0012   0.0021   0.0012  -0.0013   0.0013  -0.0009   0.00    8.7
2024/03/20 00:03:20.000  -2599929.5366   4786485.2500   3307118.3004   1  18   0.0012   0.0020   0.0012  -0.0013   0.0013  -0.0009   0.00    8.7
2024/03/20 00:03:30.000  -2599929.5364   4786485.2498   3307118.3002   1  18   0.0012   0.0020   0.0011  -0.0013   0.0012  -0.0009   0.00    8.7
2024/03/20 00:03:40.000  -2599929.5364   4786485.2498   3307118.3002   1  18   0.0011   0.0019   0.0011  -0.0012   0.0012  -0.0008   0.00    8.8
2024/03/20 00:03:50.000  -2599929.5363   4786485.2497   3307118.3002   1  18   0.0011   0.0019   0.0011  -0.0012   0.0012  -0.0008   0.00    8.8
2024/03/20 00:04:00.000  -2599929.5361   4786485.2496   3307118.3002   1  18   0.0011   0.0018   0.0010  -0.0012   0.0012  -0.0008   0.00    8.9
2024/03/20 00:04:10.000  -2599929.5361   4786485.2498   3307118.3003   1  18   0.0011   0.0018   0.0010  -0.0012   0.0011  -0.0008   0.00    9.0
2024/03/20 00:04:20.000  -2599929.5362   4786485.2502   3307118.3004   1  18   0.0010   0.0018   0.0010  -0.0011   0.0011  -0.0008   0.00    9.1
2024/03/20 00:04:30.000  -2599929.5363   4786485.2505   3307118.3006   1  18   0.0010   0.0017   0.0010  -0.0011   0.0011  -0.0008   0.00    9.2
2024/03/20 00:04:40.000  -2599929.5363   4786485.2508   3307118.3008   1  18   0.0010   0.0017   0.0010  -0.0011   0.0011  -0.0007   0.00    9.2
2024/03/20 00:04:50.000  -2599929.5364   4786485.2510   3307118.3010   1  18   0.0010   0.0017   0.0010  -0.0011   0.0010  -0.0007   0.00    9.3
2024/03/20 00:05:00.000  -2599929.5363   4786485.2511   3307118.3012   1  19   0.0010   0.0016   0.0009  -0.0010   0.0010  -0.0007   0.00    9.4
2024/03/20 00:05:10.000  -2599929.5364   4786485.2513   3307118.3013   1  19   0.0010   0.0016   0.0009  -0.0010   0.0010  -0.0007   0.00    9.5
2024/03/20 00:05:20.000  -2599929.5365   4786485.2515   3307118.3015   1  17   0.0010   0.0016   0.0009  -0.0010   0.0010  -0.0007   0.00   18.4
2024/03/20 00:05:30.000  -2599929.5364   4786485.2514   3307118.3015   1  19   0.0009   0.0016   0.0009  -0.0010   0.0010  -0.0007   0.00    9.4
2024/03/20 00:05:40.000  -2599929.5363   4786485.2515   3307118.3015   1  19   0.0009   0.0015   0.0009  -0.0010   0.0010  -0.0007   0.00    9.5
2024/03/20 00:05:50.000  -2599929.5364   4786485.2516   3307118.3016   1  19   0.0009   0.0015   0.0009  -0.0010   0.0010  -0.0007   0.00    9.5
2024/03/20 00:06:00.000  -2599929.5365   4786485.2518   3307118.3018   1  18   0.0009   0.0015   0.0009  -0.0010   0.0010  -0.0007   0.00   18.9
2024/03/20 00:06:10.000  -2599929.5365   4786485.2518   3307118.3018   1  18   0.0009   0.0015   0.0009  -0.0010   0.0010  -0.0007   0.00   19.0
2024/03/20 00:06:20.000  -2599929.5365   4786485.2518   3307118.3019   1  17   0.0009   0.0015   0.0009  -0.0010   0.0010  -0.0007   0.00   19.1
2024/03/20 00:06:30.000  -2599929.5366   4786485.2519   3307118.3020   1  17   0.0009   0.0015   0.0009  -0.0009   0.0009  -0.0007   0.00   19.3
2024/03/20 00:06:40.000  -2599929.5367   4786485.2520   3307118.3020   1  17   0.0009   0.0014   0.0008  -0.0009   0.0009  -0.0006   0.00   19.3
2024/03/20 00:06:50.000  -2599929.5367   4786485.2520   3307118.3021   1  17   0.0008   0.0014   0.0008  -0.0009   0.0009  -0.0006   0.00   19.4
2024/03/20 00:07:00.000  -2599929.5368   4786485.2521   3307118.3022   1  18   0.0008   0.0014   0.0008  -0.0009   0.0009  -0.0006   0.00   19.5
2024/03/20 00:07:10.000  -2599929.5369   4786485.2522   3307118.3022   1  18   0.0008   0.0014   0.0008  -0.0009   0.0009  -0.0006   0.00   19.6
2024/03/20 00:07:20.000  -2599929.5370   4786485.2524   3307118.3022   1  18   0.0008   0.0014   0.0008  -0.0009   0.0009  -0.0006   0.00   19.6
2024/03/20 00:07:30.000  -2599929.5371   4786485.2525   3307118.3022   1  18   0.0008   0.0014   0.0008  -0.0009   0.0009  -0.0006   0.00   19.5
2024/03/20 00:07:40.000  -2599929.5371   4786485.2526   3307118.3023   1  18   0.0008   0.0014   0.0008  -0.0009   0.0009  -0.0006   0.00   19.5
2024/03/20 00:07:50.000  -2599929.5371   4786485.2525   3307118.3023   1  19   0.0008   0.0013   0.0008  -0.0009   0.0009  -0.0006   0.00   19.6
2024/03/20 00:08:00.000  -2599929.5371   4786485.2524   3307118.3022   1  18   0.0008   0.0013   0.0008  -0.0009   0.0008  -0.0006   0.00   19.5
2024/03/20 00:08:10.000  -2599929.5370   4786485.2524   3307118.3022   1  19   0.0008   0.0013   0.0008  -0.0008   0.0008  -0.0006   0.00   19.5
2024/03/20 00:08:20.000  -2599929.5370   4786485.2524   3307118.3022   1  19   0.0008   0.0013   0.0008  -0.0008   0.0008  -0.0006   0.00   19.7
2024/03/20 00:08:30.000  -2599929.5370   4786485.2523   3307118.3022   1  18   0.0008   0.0013   0.0008  -0.0008   0.0008  -0.0006   0.00   19.7
2024/03/20 00:08:40.000  -2599929.5371   4786485.2524   3307118.3021   1  18   0.0008   0.0013   0.0007  -0.0008   0.0008  -0.0006   0.00   19.5
2024/03/20 00:08:50.000  -2599929.5371   4786485.2524   3307118.3022   1  18   0.0007   0.0013   0.0007  -0.0008   0.0008  -0.0006   0.00   19.6
2024/03/20 00:09:00.000  -2599929.5371   4786485.2524   3307118.3022   1  18   0.0007   0.0013   0.0007  -0.0008   0.0008  -0.0006   0.00   19.6
2024/03/20 00:09:10.000  -2599929.5372   4786485.2524   3307118.3021   1  18   0.0007   0.0012   0.0007  -0.0008   0.0008  -0.0006   0.00   19.4
2024/03/20 00:09:20.000  -2599929.5372   4786485.2524   3307118.3021   1  18   0.0007   0.0012   0.0007  -0.0008   0.0008  -0.0006   0.00   19.3
2024/03/20 00:09:30.000  -2599929.5372   4786485.2523   3307118.3020   1  18   0.0007   0.0012   0.0007  -0.0008   0.0008  -0.0005   0.00   19.3
2024/03/20 00:09:40.000  -2599929.5372   4786485.2523   3307118.3020   1  18   0.0007   0.0012   0.0007  -0.0008   0.0008  -0.0005   0.00   19.2
2024/03/20 00:09:50.000  -2599929.5372   4786485.2523   3307118.3020   1  18   0.0007   0.0012   0.0007  -0.0008   0.0008  -0.0005   0.00   19.2
2024/03/20 00:10:00.000  -2599929.5372   4786485.2524   3307118.3020   1  18   0.0007   0.0012   0.0007  -0.0008   0.0008  -0.0005   0.00   19.2
2024/03/20 00:10:10.000  -2599929.5372   4786485.2523   3307118.3019   1  18   0.0007   0.0012   0.0007  -0.0008   0.0008  -0.0005   0.00   19.2
2024/03/20 00:10:20.000  -2599929.5372   4786485.2524   3307118.3020   1  18   0.0007   0.0012   0.0007  -0.0008   0.0008  -0.0005   0.00   19.2
2024/03/20 00:10:30.000  -2599929.5371   4786485.2523   3307118.3020   1  18   0.0007   0.0012   0.0007  -0.0008   0.0008  -0.0005   0.00   19.2
2024/03/20 00:10:40.000  -2599929.5371   4786485.2523   3307118.3019   1  18   0.0007   0.0012   0.0007  -0.0007   0.0007  -0.0005   0.00   19.2
2024/03/20 00:10:50.000  -2599929.5371   4786485.2522   3307118.3019   1  19   0.0007   0.0012   0.0007  -0.0007   0.0007  -0.0005   0.00   19.2
2024/03/20 00:11:00.000  -2599929.5370   4786485.2521   3307118.3018   1  18   0.0007   0.0011   0.0007  -0.0007   0.0007  -0.0005   0.00   19.1
2024/03/20 00:11:10.000  -2599929.5369   4786485.2520   3307118.3018   1  19   0.0007   0.0011   0.0007  -0.0007   0.0007  -0.0005   0.00   18.9
2024/03/20 00:11:20.000  -2599929.5369   4786485.2520   3307118.3018   1  19   0.0007   0.0011   0.0007  -0.0007   0.0007  -0.0005   0.00   18.8
2024/03/20 00:11:30.000  -2599929.5369   4786485.2519   3307118.3018   1  18   0.0007   0.0011   0.0007  -0.0007   0.0007  -0.0005   0.00   18.8
2024/03/20 00:11:40.000  -2599929.5369   4786485.2519   3307118.3018   1  18   0.0007   0.0011   0.0007  -0.0007   0.0007  -0.0005   0.00   18.8
2024/03/20 00:11:50.000  -2599929.5368   4786485.2519   3307118.3018   1  18   0.0007   0.0011   0.0007  -0.0007   0.0007  -0.0005   0.00   18.8
2024/03/20 00:12:00.000  -2599929.5367   4786485.2518   3307118.3018   1  18   0.0007   0.0011   0.0006  -0.0007   0.0007  -0.0005   0.00   18.9
2024/03/20 00:12:10.000  -2599929.5367   4786485.2519   3307118.3018   1  18   0.0006   0.0011   0.0006  -0.0007   0.0007  -0.0005   0.00   19.0
2024/03/20 00:12:20.000  -2599929.5367   4786485.2519   3307118.3018   1  18   0.0006   0.0011   0.0006  -0.0007   0.0007  -0.0005   0.00   19.1
2024/03/20 00:12:30.000  -2599929.5367   4786485.2519   3307118.3017   1  18   0.0006   0.0011   0.0006  -0.0007   0.0007  -0.0005   0.00   19.0
2024/03/20 00:12:40.000  -2599929.5367   4786485.2519   3307118.3017   1  18   0.0006   0.0011   0.0006  -0.0007   0.0007  -0.0005   0.00   19.0
2024/03/20 00:12:50.000  -2599929.5368   4786485.2521   3307118.3018   1  17   0.0006   0.0011   0.0006  -0.0007   0.0007  -0.0005   0.00   19.1
2024/03/20 00:13:00.000  -2599929.5367   4786485.2522   3307118.3018   1  17   0.0006   0.0011   0.0006  -0.0007   0.0007  -0.0005   0.00   19.3
2024/03/20 00:13:10.000  -2599929.5367   4786485.2522   3307118.3019   1  17   0.0006   0.0011   0.0006  -0.0007   0.0007  -0.0005   0.00   19.5
2024/03/20 00:13:20.000  -2599929.5367   4786485.2523   3307118.3019   1  18   0.0006   0.0011   0.0006  -0.0007   0.0007  -0.0005   0.00   19.6
2024/03/20 00:13:30.000  -2599929.5366   4786485.2523   3307118.3019   1  18   0.0006   0.0011   0.0006  -0.0007   0.0007  -0.0005   0.00   19.8
2024/03/20 00:13:40.000  -2599929.5367   4786485.2524   3307118.3019   1  18   0.0006   0.0011   0.0006  -0.0007   0.0007  -0.0005   0.00   20.0
2024/03/20 00:13:50.000  -2599929.5367   4786485.2524   3307118.3019   1  18   0.0006   0.0010   0.0006  -0.0007   0.0007  -0.0005   0.00   20.1
2024/03/20 00:14:00.000  -2599929.5366   4786485.2524   3307118.3020   1  18   0.0006   0.0010   0.0006  -0.0007   0.0007  -0.0005   0.00   20.2
2024/03/20 00:14:10.000  -2599929.5366   4786485.2524   3307118.3020   1  18   0.0006   0.0010   0.0006  -0.0007   0.0007  -0.0005   0.00   20.4
2024/03/20 00:14:20.000  -2599929.5365   4786485.2524   3307118.3020   1  18   0.0006   0.0010   0.0006  -0.0007   0.0007  -0.0005   0.00   20.5
2024/03/20 00:14:30.000  -2599929.5365   4786485.2525   3307118.3020   1  18   0.0006   0.0010   0.0006  -0.0007   0.0007  -0.0005   0.00   20.6
2024/03/20 00:14:40.000  -2599929.5365   4786485.2525   3307118.3020   1  18   0.0006   0.0010   0.0006  -0.0007   0.0007  -0.0005   0.00   20.6
2024/03/20 00:14:50.000  -2599929.5366   4786485.2525   3307118.3020   1  18   0.0006   0.0010   0.0006  -0.0007   0.0007  -0.0005   0.00   20.7
2024/03/20 00:15:00.000  -2599929.5366   4786485.2525   3307118.3020   1  17   0.0006   0.0010   0.0006  -0.0007   0.0007  -0.0005   0.00   20.7
2024/03/20 00:15:10.000  -2599929.5366   4786485.2525   3307118.3020   1  18   0.0006   0.0010   0.0006  -0.0007   0.0006  -0.0005   0.00   20.8
2024/03/20 00:15:20.000  -2599929.5367   4786485.2526   3307118.3020   1  17   0.0006   0.0010   0.0006  -0.0007   0.0006  -0.0005   0.00   20.9
2024/03/20 00:15:30.000  -2599929.5367   4786485.2526   3307118.3021   1  19   0.0006   0.0010   0.0006  -0.0006   0.0006  -0.0005   0.00   20.9
2024/03/20 00:15:40.000  -2599929.5367   4786485.2527   3307118.3020   1  18   0.0006   0.0010   0.0006  -0.0006   0.0006  -0.0004   0.00   20.9
2024/03/20 00:15:50.000  -2599929.5367   4786485.2527   3307118.3020   1  18   0.0006   0.0010   0.0006  -0.0006   0.0006  -0.0004   0.00   20.9
2024/03/20 00:16:00.000  -2599929.5367   4786485.2527   3307118.3020   1  18   0.0006   0.0010   0.0006  -0.0006   0.0006  -0.0004   0.00   21.0
2024/03/20 00:16:10.000  -2599929.5367   4786485.2527   3307118.3020   1  18   0.0006   0.0010   0.0006  -0.0006   0.0006  -0.0004   0.00   21.1
2024/03/20 00:16:20.000  -2599929.5368   4786485.2527   3307118.3020   1  18   0.0006   0.0010   0.0006  -0.0006   0.0006  -0.0004   0.00   21.2
2024/03/20 00:16:30.000  -2599929.5368   4786485.2528   3307118.3021   1  18   0.0006   0.0010   0.0006  -0.0006   0.0006  -0.0004   0.00   21.4
2024/03/20 00:16:40.000  -2599929.5368   4786485.2528   3307118.3021   1  18   0.0006   0.0010   0.0006  -0.0006   0.0006  -0.0004   0.00   21.5
2024/03/20 00:16:50.000  -2599929.5368   4786485.2528   3307118.3020   1  18   0.0006   0.0010   0.0006  -0.0006   0.0006  -0.0004   0.00   21.7
2024/03/20 00:17:00.000  -2599929.5368   4786485.2528   3307118.3021   1  18   0.0006   0.0010   0.0006  -0.0006   0.0006  -0.0004   0.00   21.7
2024/03/20 00:17:10.000  -2599929.5368   4786485.2528   3307118.3020   1  18   0.0006   0.0010   0.0006  -0.0006   0.0006  -0.0004   0.00   21.8
2024/03/20 00:17:20.000  -2599929.5368   4786485.2528   3307118.3020   1  18   0.0006   0.0010   0.0006  -0.0006   0.0006  -0.0004   0.00   22.0
2024/03/20 00:17:30.000  -2599929.5368   4786485.2528   3307118.3020   1  17   0.0006   0.0010   0.0006  -0.0006   0.0006  -0.0004   0.00   22.1
2024/03/20 00:17:40.000  -2599929.5368   4786485.2528   3307118.3021   1  19   0.0006   0.0010   0.0006  -0.0006   0.0006  -0.0004   0.00   22.2
2024/03/20 00:17:50.000  -2599929.5368   4786485.2529   3307118.3021   1  17   0.0006   0.0010   0.0006  -0.0006   0.0006  -0.0004   0.00   22.2
2024/03/20 00:18:00.000  -2599929.5368   4786485.2529   3307118.3021   1  17   0.0006   0.0010   0.0006  -0.0006   0.0006  -0.0004   0.00   22.3
2024/03/20 00:18:10.000  -2599929.5368   4786485.2528   3307118.3021   1  17   0.0006   0.0010   0.0006  -0.0006   0.0006  -0.0004   0.00   22.4
2024/03/20 00:18:20.000  -2599929.5368   4786485.2528   3307118.3021   1  17   0.0006   0.0009   0.0006  -0.0006   0.0006  -0.0004   0.00   22.5
2024/03/20 00:18:30.000  -2599929.5368   4786485.2528   3307118.3020   1  17   0.0006   0.0009   0.0006  -0.0006   0.0006  -0.0004   0.00   22.5
2024/03/20 00:18:40.000  -2599929.5367   4786485.2528   3307118.3021   1  17   0.0006   0.0009   0.0006  -0.0006   0.0006  -0.0004   0.00   22.6
2024/03/20 00:18:50.000  -2599929.5367   4786485.2528   3307118.3021   1  17   0.0006   0.0009   0.0006  -0.0006   0.0006  -0.0004   0.00   22.7
2024/03/20 00:19:00.000  -2599929.5367   4786485.2527   3307118.3021   1  18   0.0006   0.0009   0.0006  -0.0006   0.0006  -0.0004   0.00   22.7
2024/03/20 00:19:10.000  -2599929.5367   4786485.2527   3307118.3021   1  17   0.0006   0.0009   0.0006  -0.0006   0.0006  -0.0004   0.00   22.8
2024/03/20 00:19:20.000  -2599929.5367   4786485.2527   3307118.3021   1  17   0.0006   0.0009   0.0006  -0.0006   0.0006  -0.0004   0.00   22.9
2024/03/20 00:19:30.000  -2599929.5367   4786485.2526   3307118.3020   1  17   0.0006   0.0009   0.0006  -0.0006   0.0006  -0.0004   0.00   23.0
2024/03/20 00:19:40.000  -2599929.5367   4786485.2526   3307118.3020   1  17   0.0006   0.0009   0.0005  -0.0006   0.0006  -0.0004   0.00   23.0
2024/03/20 00:19:50.000  -2599929.5367   4786485.2526   3307118.3021   1  17   0.0005   0.0009   0.0005  -0.0006   0.0006  -0.0004   0.00   23.0
2024/03/20 00:20:00.000  -2599929.5367   4786485.2525   3307118.3020   1  17   0.0005   0.0009   0.0005  -0.0006   0.0006  -0.0004   0.00   23.0
2024/03/20 00:20:10.000  -2599929.5367   4786485.2525   3307118.3020   1  17   0.0005   0.0009   0.0005  -0.0006   0.0006  -0.0004   0.00   23.0
2024/03/20 00:20:20.000  -2599929.5368   4786485.2525   3307118.3020   1  17   0.0005   0.0009   0.0005  -0.0006   0.0006  -0.0004   0.00   23.0
2024/03/20 00:20:30.000  -2599929.5368   4786485.2525   3307118.3020   1  17   0.0005   0.0009   0.0005  -0.0006   0.0006  -0.0004   0.00   23.0
2024/03/20 00:20:40.000  -2599929.5368   4786485.2525   3307118.3020   1  17   0.0005   0.0009   0.0005  -0.0006   0.0006  -0.0004   0.00   22.9
2024/03/20 00:20:50.000  -2599929.5368   4786485.2525   3307118.3020   1  17   0.0005   0.0009   0.0005  -0.0006   0.0006  -0.0004   0.00   23.0
2024/03/20 00:21:00.000  -2599929.5368   4786485.2525   3307118.3020   1  17   0.0005   0.0009   0.0005  -0.0006   0.0006  -0.0004   0.00   23.0
2024/03/20 00:21:10.000  -2599929.5368   4786485.2525   3307118.3020   1  17   0.0005   0.0009   0.0005  -0.0006   0.0006  -0.0004   0.00   23.0
2024/03/20 00:21:20.000  -2599929.5368   4786485.2525   3307118.3020   1  17   0.0005   0.0009   0.0005  -0.0006   0.0006  -0.0004   0.00   23.1
2024/03/20 00:21:30.000  -2599929.5368   4786485.2526   3307118.3020   1  17   0.0005   0.0009   0.0005  -0.0006   0.0006  -0.0004   0.00   23.1
2024/03/20 00:21:40.000  -2599929.5368   4786485.2526   3307118.3020   1  17   0.0005   0.0009   0.0005  -0.0006   0.0006  -0.0004   0.00   23.2
2024/03/20 00:21:50.000  -2599929.5368   4786485.2527   3307118.3020   1  17   0.0005   0.0009   0.0005  -0.0006   0.0006  -0.0004   0.00   23.2
2024/03/20 00:22:00.000  -2599929.5368   4786485.2527   3307118.3021   1  17   0.0005   0.0009   0.0005  -0.0006   0.0006  -0.0004   0.00   23.2
2024/03/20 00:22:10.000  -2599929.5368   4786485.2527   3307118.3021   1  17   0.0005   0.0009   0.0005  -0.0006   0.0006  -0.0004   0.00   23.2
2024/03/20 00:22:20.000  -2599929.5368   4786485.2527   3307118.3020   1  17   0.0005   0.0009   0.0005  -0.0006   0.0006  -0.0004   0.00   23.3
2024/03/20 00:22:30.000  -2599929.5368   4786485.2526   3307118.3020   1  17   0.0005   0.0009   0.0005  -0.0006   0.0006  -0.0004   0.00   23.4
2024/03/20 00:22:40.000  -2599929.5367   4786485.2525   3307118.3020   1  17   0.0005   0.0009   0.0005  -0.0006   0.0006  -0.0004   0.00   23.5
2024/03/20 00:22:50.000  -2599929.5366   4786485.2525   3307118.3020   1  17   0.0005   0.0009   0.0005  -0.0006   0.0006  -0.0004   0.00   23.6
2024/03/20 00:23:00.000  -2599929.5366   4786485.2524   3307118.3020   1  17   0.0005   0.0009   0.0005  -0.0006   0.0006  -0.0004   0.00   23.7
2024/03/20 00:23:10.000  -2599929.5366   4786485.2525   3307118.3020   1  17   0.0005   0.0009   0.0005  -0.0006   0.0006  -0.0004   0.00   23.8
2024/03/20 00:23:20.000  -2599929.5366   4786485.2525   3307118.3020   1  17   0.0005   0.0009   0.0005  -0.0006   0.0006  -0.0004   0.00   23.9
2024/03/20 00:23:30.000  -2599929.5365   4786485.2524   3307118.3020   1  17   0.0005   0.0009   0.0005  -0.0006   0.0006  -0.0004   0.00   24.0
2024/03/20 00:23:40.000  -2599929.5365   4786485.2524   3307118.3020   1  17   0.0005   0.0009   0.0005  -0.0006   0.0006  -0.0004   0.00   24.0
2024/03/20 00:23:50.000  -2599929.5365   4786485.2524   3307118.3020   1  17   0.0005   0.0009   0.0005  -0.0006   0.0006  -0.0004   0.00   24.0
2024/03/20 00:24:00.000  -2599929.5365   4786485.2524   3307118.3021   1  17   0.0005   0.0009   0.0005  -0.0006   0.0006  -0.0004   0.00   24.1
2024/03/20 00:24:10.000  -2599929.5365   4786485.2524   3307118.3021   1  17   0.0005   0.0009   0.0005  -0.0006   0.0006  -0.0004   0.00   24.1
2024/03/20 00:24:20.000  -2599929.5364   4786485.2524   3307118.3021   1  17   0.0005   0.0009   0.0005  -0.0006   0.0006  -0.0004   0.00   24.2
2024/03/20 00:24:30.000  -2599929.5364   4786485.2525   3307118.3021   1  17   0.0005   0.0009   0.0005  -0.0006   0.0006  -0.0004   0.00   24.2
2024/03/20 00:24:40.000  -2599929.5365   4786485.2525   3307118.3022   1  17   0.0005   0.0009   0.0005  -0.0006   0.0006  -0.0004   0.00   24.3
2024/03/20 00:24:50.000  -2599929.5364   4786485.2525   3307118.3022   1  17   0.0005   0.0009   0.0005  -0.0006   0.0006  -0.0004   0.00   24.4
2024/03/20 00:25:00.000  -2599929.5364   4786485.2525   3307118.3022   1  17   0.0005   0.0009   0.0005  -0.0006   0.0006  -0.0004   0.00   24.5
2024/03/20 00:25:10.000  -2599929.5364   4786485.2525   3307118.3022   1  17   0.0005   0.0009   0.0005  -0.0006   0.0006  -0.0004   0.00   24.6
2024/03/20 00:25:20.000  -2599929.5364   4786485.2525   3307118.3023   1  17   0.0005   0.0009   0.0005  -0.0006   0.0006  -0.0004   0.00   24.7
2024/03/20 00:25:30.000  -2599929.5364   4786485.2525   3307118.3023   1  17   0.0005   0.0009   0.0005  -0.0006   0.0006  -0.0004   0.00   24.7
2024/03/20 00:25:40.000  -2599929.5364   4786485.2525   3307118.3023   1  17   0.0005   0.0009   0.0005  -0.0006   0.0006  -0.0004   0.00   24.8
2024/03/20 00:25:50.000  -2599929.5364   4786485.2526   3307118.3023   1  17   0.0005   0.0009   0.0005  -0.0006   0.0006  -0.0004   0.00   24.8
2024/03/20 00:26:00.000  -2599929.5364   4786485.2526   3307118.3023   1  17   0.0005   0.0009   0.0005  -0.0006   0.0006  -0.0004   0.00   24.8
2024/03/20 00:26:10.000  -2599929.5364   4786485.2526   3307118.3024   1  17   0.0005   0.0009   0.0005  -0.0006   0.0006  -0.0004   0.00   24.8
2024/03/20 00:26:20.000  -2599929.5364   4786485.2526   3307118.3024   1  17   0.0005   0.0009   0.0005  -0.0006   0.0006  -0.0004   0.00   24.8
2024/03/20 00:26:30.000  -2599929.5364   4786485.2527   3307118.3024   1  17   0.0005   0.0009   0.0005  -0.0006   0.0005  -0.0004   0.00   24.8
2024/03/20 00:26:40.000  -2599929.5364   4786485.2526   3307118.3024   1  17   0.0005   0.0009   0.0005  -0.0006   0.0005  -0.0004   0.00   24.7
2024/03/20 00:26:50.000  -2599929.5364   4786485.2526   3307118.3024   1  17   0.0005   0.0009   0.0005  -0.0006   0.0005  -0.0004   0.00   24.8
2024/03/20 00:27:00.000  -2599929.5363   4786485.2526   3307118.3024   1  17   0.0005   0.0009   0.0005  -0.0006   0.0005  -0.0004   0.00   24.7
2024/03/20 00:27:10.000  -2599929.5363   4786485.2525   3307118.3024   1  17   0.0005   0.0009   0.0005  -0.0006   0.0005  -0.0004   0.00   24.7
2024/03/20 00:27:20.000  -2599929.5363   4786485.2526   3307118.3024   1  17   0.0005   0.0009   0.0005  -0.0006   0.0005  -0.0004   0.00   24.7
2024/03/20 00:27:30.000  -2599929.5363   4786485.2526   3307118.3024   1  17   0.0005   0.0009   0.0005  -0.0006   0.0005  -0.0004   0.00   24.7
2024/03/20 00:27:40.000  -2599929.5362   4786485.2525   3307118.3024   1  17   0.0005   0.0009   0.0005  -0.0006   0.0005  -0.0004   0.00   24.7
2024/03/20 00:27:50.000  -2599929.5362   4786485.2525   3307118.3023   1  17   0.0005   0.0009   0.0005  -0.0006   0.0005  -0.0004   0.00   24.7
2024/03/20 00:28:00.000  -2599929.5361   4786485.2525   3307118.3023   1  17   0.0005   0.0008   0.0005  -0.0006   0.0005  -0.0004   0.00   24.7
2024/03/20 00:28:10.000  -2599929.5361   4786485.2525   3307118.3023   1  17   0.0005   0.0008   0.0005  -0.0006   0.0005  -0.0004   0.00   24.8
2024/03/20 00:28:20.000  -2599929.5361   4786485.2525   3307118.3024   1  17   0.0005   0.0008   0.0005  -0.0006   0.0005  -0.0004   0.00   24.8
2024/03/20 00:28:30.000  -2599929.5361   4786485.2525   3307118.3024   1  17   0.0005   0.0008   0.0005  -0.0006   0.0005  -0.0004   0.00   24.9
2024/03/20 00:28:40.000  -2599929.5360   4786485.2525   3307118.3024   1  17   0.0005   0.0008   0.0005  -0.0006   0.0005  -0.0004   0.00   24.9
2024/03/20 00:28:50.000  -2599929.5360   4786485.2524   3307118.3024   1  17   0.0005   0.0008   0.0005  -0.0006   0.0005  -0.0004   0.00   25.0
2024/03/20 00:29:00.000  -2599929.5359   4786485.2523   3307118.3024   1  17   0.0005   0.0008   0.0005  -0.0006   0.0005  -0.0004   0.00   25.0
2024/03/20 00:29:10.000  -2599929.5359   4786485.2524   3307118.3024   1  17   0.0005   0.0008   0.0005  -0.0006   0.0005  -0.0004   0.00   25.1
2024/03/20 00:29:20.000  -2599929.5359   4786485.2524   3307118.3024   1  17   0.0005   0.0008   0.0005  -0.0006   0.0005  -0.0004   0.00   25.2
2024/03/20 00:29:30.000  -2599929.5359   4786485.2524   3307118.3024   1  17   0.0005   0.0008   0.0005  -0.0005   0.0005  -0.0004   0.00   25.3
2024/03/20 00:29:40.000  -2599929.5359   4786485.2524   3307118.3024   1  17   0.0005   0.0008   0.0005  -0.0005   0.0005  -0.0004   0.00   25.4
2024/03/20 00:29:50.000  -2599929.5358   4786485.2524   3307118.3024   1  17   0.0005   0.0008   0.0005  -0.0005   0.0005  -0.0004   0.00   25.5
2024/03/20 00:30:00.000  -2599929.5358   4786485.2524   3307118.3024   1  17   0.0005   0.0008   0.0005  -0.0005   0.0005  -0.0004   0.00   25.6
2024/03/20 00:30:10.000  -2599929.5358   4786485.2524   3307118.3024   1  17   0.0005   0.0008   0.0005  -0.0005   0.0005  -0.0004   0.00   25.6
2024/03/20 00:30:20.000  -2599929.5358   4786485.2524   3307118.3024   1  17   0.0005   0.0008   0.0005  -0.0005   0.0005  -0.0004   0.00   25.7
2024/03/20 00:30:30.000  -2599929.5357   4786485.2524   3307118.3024   1  17   0.0005   0.0008   0.0005  -0.0005   0.0005  -0.0004   0.00   25.7
2024/03/20 00:30:40.000  -2599929.5357   4786485.2524   3307118.3024   1  17   0.0005   0.0008   0.0005  -0.0005   0.0005  -0.0004   0.00   25.8
2024/03/20 00:30:50.000  -2599929.5356   4786485.2524   3307118.3024   1  17   0.0005   0.0008   0.0005  -0.0005   0.0005  -0.0004   0.00   26.0
2024/03/20 00:31:00.000  -2599929.5356   4786485.2524   3307118.3025   1  17   0.0005   0.0008   0.0005  -0.0005   0.0005  -0.0004   0.00   26.0
2024/03/20 00:31:10.000  -2599929.5356   4786485.2524   3307118.3025   1  17   0.0005   0.0008   0.0005  -0.0005   0.0005  -0.0004   0.00   26.2
2024/03/20 00:31:20.000  -2599929.5356   4786485.2524   3307118.3025   1  17   0.0005   0.0008   0.0005  -0.0005   0.0005  -0.0004   0.00   26.3
2024/03/20 00:31:30.000  -2599929.5356   4786485.2524   3307118.3025   1  17   0.0005   0.0008   0.0005  -0.0005   0.0005  -0.0004   0.00   26.4
2024/03/20 00:31:40.000  -2599929.5356   4786485.2524   3307118.3025   1  17   0.0005   0.0008   0.0005  -0.0005   0.0005  -0.0004   0.00   26.5
2024/03/20 00:31:50.000  -2599929.5356   4786485.2525   3307118.3025   1  17   0.0005   0.0008   0.0005  -0.0005   0.0005  -0.0004   0.00   26.6
2024/03/20 00:32:00.000  -2599929.5355   4786485.2525   3307118.3025   1  17   0.0005   0.0008   0.0005  -0.0005   0.0005  -0.0004   0.00   26.7
2024/03/20 00:32:10.000  -2599929.5355   4786485.2525   3307118.3025   1  17   0.0005   0.0008   0.0005  -0.0005   0.0005  -0.0004   0.00   26.7
2024/03/20 00:32:20.000  -2599929.5355   4786485.2525   3307118.3026   1  17   0.0005   0.0008   0.0005  -0.0005   0.0005  -0.0004   0.00   26.8
2024/03/20 00:32:30.000  -2599929.5355   4786485.2525   3307118.3026   1  17   0.0005   0.0008   0.0005  -0.0005   0.0005  -0.0004   0.00   26.8
2024/03/20 00:32:40.000  -2599929.5355   4786485.2525   3307118.3026   1  17   0.0005   0.0008   0.0005  -0.0005   0.0005  -0.0004   0.00   26.8
2024/03/20 00:32:50.000  -2599929.5355   4786485.2525   3307118.3026   1  17   0.0005   0.0008   0.0005  -0.0005   0.0005  -0.0004   0.00   26.8
2024/03/20 00:33:00.000  -2599929.5355   4786485.2525   3307118.3026   1  17   0.0005   0.0008   0.0005  -0.0005   0.0005  -0.0004   0.00   26.8
2024/03/20 00:33:10.000  -2599929.5355   4786485.2525   3307118.3026   1  17   0.0005   0.0008   0.0005  -0.0005   0.0005  -0.0004   0.00   26.8
2024/03/20 00:33:20.000  -2599929.5355   4786485.2526   3307118.3027   1  17   0.0005   0.0008   0.0005  -0.0005   0.0005  -0.0004   0.00   26.8
2024/03/20 00:33:30.000  -2599929.5355   4786485.2526   3307118.3027   1  17   0.0005   0.0008   0.0005  -0.0005   0.0005  -0.0004   0.00   26.9
2024/03/20 00:33:40.000  -2599929.5355   4786485.2525   3307118.3027   1  17   0.0005   0.0008   0.0005  -0.0005   0.0005  -0.0004   0.00   27.0
2024/03/20 00:33:50.000  -2599929.5355   4786485.2525   3307118.3027   1  17   0.0005   0.0008   0.0005  -0.0005   0.0005  -0.0004   0.00   27.0
2024/03/20 00:34:00.000  -2599929.5355   4786485.2525   3307118.3027   1  17   0.0005   0.0008   0.0005  -0.0005   0.0005  -0.0004   0.00   27.1
2024/03/20 00:34:10.000  -2599929.5355   4786485.2525   3307118.3027   1  17   0.0005   0.0008   0.0005  -0.0005   0.0005  -0.0004   0.00   27.0
2024/03/20 00:34:20.000  -2599929.5355   4786485.2525   3307118.3027   1  17   0.0005   0.0008   0.0005  -0.0005   0.0005  -0.0004   0.00   27.0
2024/03/20 00:34:30.000  -2599929.5355   4786485.2525   3307118.3027   1  17   0.0005   0.0008   0.0005  -0.0005   0.0005  -0.0004   0.00   27.0
2024/03/20 00:34:40.000  -2599929.5355   4786485.2525   3307118.3027   1  17   0.0005   0.0008   0.0005  -0.0005   0.0005  -0.0004   0.00   27.1
2024/03/20 00:34:50.000  -2599929.5355   4786485.2524   3307118.3027   1  17   0.0005   0.0008   0.0005  -0.0005   0.0005  -0.0004   0.00   27.2
2024/03/20 00:35:00.000  -2599929.5355   4786485.2524   3307118.3027   1  17   0.0005   0.0008   0.0005  -0.0005   0.0005  -0.0004   0.00   27.2
2024/03/20 00:35:10.000  -2599929.5355   4786485.2524   3307118.3027   1  17   0.0005   0.0008   0.0005  -0.0005   0.0005  -0.0004   0.00   27.4
2024/03/20 00:35:20.000  -2599929.5354   4786485.2523   3307118.3027   1  17   0.0005   0.0008   0.0005  -0.0005   0.0005  -0.0004   0.00   27.5
2024/03/20 00:35:30.000  -2599929.5354   4786485.2523   3307118.3027   1  17   0.0005   0.0008   0.0005  -0.0005   0.0005  -0.0004   0.00   27.5
2024/03/20 00:35:40.000  -2599929.5354   4786485.2523   3307118.3027   1  17   0.0005   0.0008   0.0005  -0.0005   0.0005  -0.0004   0.00   27.7
2024/03/20 00:35:50.000  -2599929.5353   4786485.2522   3307118.3027   1  17   0.0005   0.0008   0.0005  -0.0005   0.0005  -0.0004   0.00   27.8
2024/03/20 00:36:00.000  -2599929.5353   4786485.2522   3307118.3027   1  17   0.0005   0.0008   0.0005  -0.0005   0.0005  -0.0004   0.00   27.9
2024/03/20 00:36:10.000  -2599929.5352   4786485.2521   3307118.3027   1  17   0.0005   0.0008   0.0005  -0.0005   0.0005  -0.0004   0.00   28.0
2024/03/20 00:36:20.000  -2599929.5352   4786485.2521   3307118.3027   1  17   0.0005   0.0008   0.0005  -0.0005   0.0005  -0.0004   0.00   28.1
2024/03/20 00:36:30.000  -2599929.5351   4786485.2521   3307118.3027   1  17   0.0005   0.0008   0.0005  -0.0005   0.0005  -0.0004   0.00   28.3
2024/03/20 00:36:40.000  -2599929.5351   4786485.2521   3307118.3027   1  17   0.0005   0.0008   0.0005  -0.0005   0.0005  -0.0004   0.00   28.4
2024/03/20 00:36:50.000  -2599929.5351   4786485.2521   3307118.3028   1  17   0.0005   0.0008   0.0005  -0.0005   0.0005  -0.0004   0.00   28.5
2024/03/20 00:37:00.000  -2599929.5351   4786485.2521   3307118.3028   1  17   0.0005   0.0008   0.0005  -0.0005   0.0005  -0.0004   0.00   28.6
2024/03/20 00:37:10.000  -2599929.5351   4786485.2521   3307118.3028   1  17   0.0005   0.0008   0.0005  -0.0005   0.0005  -0.0004   0.00   28.7
2024/03/20 00:37:20.000  -2599929.5350   4786485.2521   3307118.3028   1  17   0.0005   0.0008   0.0005  -0.0005   0.0005  -0.0004   0.00   28.9
2024/03/20 00:37:30.000  -2599929.5350   4786485.2521   3307118.3028   1  17   0.0005   0.0008   0.0005  -0.0005   0.0005  -0.0004   0.00   29.0
2024/03/20 00:37:40.000  -2599929.5350   4786485.2521   3307118.3028   1  17   0.0005   0.0008   0.0005  -0.0005   0.0005  -0.0004   0.00   29.1
2024/03/20 00:37:50.000  -2599929.5349   4786485.2522   3307118.3028   1  17   0.0005   0.0008   0.0005  -0.0005   0.0005  -0.0004   0.00   29.2
2024/03/20 00:38:00.000  -2599929.5349   4786485.2522   3307118.3029   1  17   0.0005   0.0008   0.0005  -0.0005   0.0005  -0.0004   0.00   29.2
2024/03/20 00:38:10.000  -2599929.5349   4786485.2521   3307118.3028   1  17   0.0005   0.0008   0.0005  -0.0005   0.0005  -0.0004   0.00   29.4
2024/03/20 00:38:20.000  -2599929.5349   4786485.2521   3307118.3028   1  17   0.0005   0.0008   0.0005  -0.0005   0.0005  -0.0004   0.00   29.4
2024/03/20 00:38:30.000  -2599929.5348   4786485.2521   3307118.3028   1  17   0.0005   0.0008   0.0005  -0.0005   0.0005  -0.0004   0.00   29.5
2024/03/20 00:38:40.000  -2599929.5348   4786485.2521   3307118.3029   1  17   0.0005   0.0008   0.0005  -0.0005   0.0005  -0.0004   0.00   29.4
2024/03/20 00:38:50.000  -2599929.5348   4786485.2521   3307118.3029   1  17   0.0005   0.0008   0.0005  -0.0005   0.0005  -0.0004   0.00   29.4
2024/03/20 00:39:00.000  -2599929.5348   4786485.2520   3307118.3029   1  17   0.0005   0.0008   0.0005  -0.0005   0.0005  -0.0004   0.00   29.4
2024/03/20 00:39:10.000  -2599929.5348   4786485.2520   3307118.3029   1  17   0.0005   0.0008   0.0005  -0.0005   0.0005  -0.0004   0.00   29.4
2024/03/20 00:39:20.000  -2599929.5347   4786485.2520   3307118.3029   1  17   0.0005   0.0008   0.0005  -0.0005   0.0005  -0.0004   0.00   29.3
2024/03/20 00:39:30.000  -2599929.5347   4786485.2520   3307118.3029   1  17   0.0005   0.0008   0.0005  -0.0005   0.0005  -0.0004   0.00   29.3
2024/03/20 00:39:40.000  -2599929.5347   4786485.2520   3307118.3029   1  17   0.0005   0.0008   0.0005  -0.0005   0.0005  -0.0004   0.00   29.3
2024/03/20 00:39:50.000  -2599929.5347   4786485.2519   3307118.3029   1  17   0.0005   0.0008   0.0005  -0.0005   0.0005  -0.0004   0.00   29.3
2024/03/20 00:40:00.000  -2599929.5347   4786485.2520   3307118.3029   1  17   0.0005   0.0008   0.0005  -0.0005   0.0005  -0.0004   0.00   29.3
2024/03/20 00:40:10.000  -2599929.5347   4786485.2520   3307118.3029   1  17   0.0005   0.0008   0.0005  -0.0005   0.0005  -0.0004   0.00   29.3
2024/03/20 00:40:20.000  -2599929.5348   4786485.2520   3307118.3029   1  17   0.0005   0.0008   0.0005  -0.0005   0.0005  -0.0004   0.00   29.3
2024/03/20 00:40:30.000  -2599929.5348   4786485.2521   3307118.3029   1  17   0.0005   0.0008   0.0005  -0.0005   0.0005  -0.0004   0.00   29.3
2024/03/20 00:40:40.000  -2599929.5348   4786485.2521   3307118.3029   1  17   0.0005   0.0008   0.0005  -0.0005   0.0005  -0.0004   0.00   29.3
2024/03/20 00:40:50.000  -2599929.5348   4786485.2520   3307118.3029   1  17   0.0005   0.0008   0.0005  -0.0005   0.0005  -0.0004   0.00   29.3
2024/03/20 00:41:00.000  -2599929.5348   4786485.2520   3307118.3029   1  17   0.0005   0.0008   0.0005  -0.0005   0.0005  -0.0004   0.00   29.3
2024/03/20 00:41:10.000  -2599929.5347   4786485.2520   3307118.3029   1  17   0.0005   0.0008   0.0005  -0.0005   0.0005  -0.0004   0.00   29.3
2024/03/20 00:41:20.000  -2599929.5347   4786485.2521   3307118.3030   1  17   0.0005   0.0008   0.0005  -0.0005   0.0005  -0.0004   0.00   29.3
2024/03/20 00:41:30.000  -2599929.5347   4786485.2520   3307118.3030   1  17   0.0005   0.0008   0.0005  -0.0005   0.0005  -0.0004   0.00   29.3
2024/03/20 00:41:40.000  -2599929.5347   4786485.2520   3307118.3030   1  17   0.0005   0.0008   0.0005  -0.0005   0.0005  -0.0004   0.00   29.3
2024/03/20 00:41:50.000  -2599929.5347   4786485.2520   3307118.3030   1  17   0.0005   0.0008   0.0005  -0.0005   0.0005  -0.0004   0.00   29.3
2024/03/20 00:42:00.000  -2599929.5347   4786485.2521   3307118.3031   1  17   0.0005   0.0008   0.0005  -0.0005   0.0005  -0.0004   0.00   29.4
2024/03/20 00:42:10.000  -2599929.5348   4786485.2521   3307118.3031   1  17   0.0005   0.0008   0.0005  -0.0005   0.0005  -0.0004   0.00   29.4
2024/03/20 00:42:20.000  -2599929.5348   4786485.2521   3307118.3031   1  17   0.0005   0.0008   0.0005  -0.0005   0.0005  -0.0003   0.00   29.5
2024/03/20 00:42:30.000  -2599929.5348   4786485.2521   3307118.3032   1  17   0.0005   0.0008   0.0005  -0.0005   0.0005  -0.0003   0.00   29.5
2024/03/20 00:42:40.000  -2599929.5348   4786485.2522   3307118.3032   1  17   0.0005   0.0008   0.0005  -0.0005   0.0005  -0.0003   0.00   29.7
2024/03/20 00:42:50.000  -2599929.5348   4786485.2523   3307118.3033   1  17   0.0005   0.0008   0.0005  -0.0005   0.0005  -0.0003   0.00   29.9
2024/03/20 00:43:00.000  -2599929.5348   4786485.2523   3307118.3034   1  17   0.0005   0.0008   0.0005  -0.0005   0.0005  -0.0003   0.00   30.0
2024/03/20 00:43:10.000  -2599929.5348   4786485.2523   3307118.3034   1  17   0.0005   0.0008   0.0005  -0.0005   0.0005  -0.0003   0.00   30.1
2024/03/20 00:43:20.000  -2599929.5348   4786485.2523   3307118.3034   1  17   0.0005   0.0008   0.0005  -0.0005   0.0005  -0.0003   0.00   30.1
2024/03/20 00:43:30.000  -2599929.5348   4786485.2523   3307118.3035   1  17   0.0005   0.0008   0.0005  -0.0005   0.0005  -0.0003   0.00   30.1
2024/03/20 00:43:40.000  -2599929.5349   4786485.2524   3307118.3036   1  17   0.0005   0.0008   0.0005  -0.0005   0.0005  -0.0003   0.00   30.2
2024/03/20 00:43:50.000  -2599929.5349   4786485.2524   3307118.3036   1  17   0.0005   0.0008   0.0005  -0.0005   0.0005  -0.0003   0.00   30.3
2024/03/20 00:44:00.000  -2599929.5349   4786485.2524   3307118.3037   1  17   0.0005   0.0008   0.0005  -0.0005   0.0005  -0.0003   0.00   30.3
2024/03/20 00:44:10.000  -2599929.5349   4786485.2524   3307118.3037   1  17   0.0005   0.0008   0.0005  -0.0005   0.0005  -0.0003   0.00   30.5
2024/03/20 00:44:20.000  -2599929.5348   4786485.2524   3307118.3038   1  17   0.0005   0.0008   0.0005  -0.0005   0.0005  -0.0003   0.00   30.6
2024/03/20 00:44:30.000  -2599929.5349   4786485.2524   3307118.3038   1  17   0.0005   0.0008   0.0005  -0.0005   0.0005  -0.0003   0.00   30.6
2024/03/20 00:44:40.000  -2599929.5349   4786485.2525   3307118.3039   1  17   0.0005   0.0008   0.0005  -0.0005   0.0005  -0.0003   0.00   30.6
2024/03/20 00:44:50.000  -2599929.5349   4786485.2525   3307118.3039   1  17   0.0005   0.0008   0.0005  -0.0005   0.0005  -0.0003   0.00   30.6
2024/03/20 00:45:00.000  -2599929.5349   4786485.2526   3307118.3040   1  17   0.0005   0.0008   0.0005  -0.0005   0.0005  -0.0003   0.00   30.7
2024/03/20 00:45:10.000  -2599929.5349   4786485.2526   3307118.3040   1  17   0.0005   0.0008   0.0005  -0.0005   0.0005  -0.0003   0.00   30.7
2024/03/20 00:45:20.000  -2599929.5349   4786485.2527   3307118.3041   1  17   0.0005   0.0008   0.0005  -0.0005   0.0005  -0.0003   0.00   30.6
2024/03/20 00:45:30.000  -2599929.5350   4786485.2528   3307118.3041   1  17   0.0005   0.0008   0.0005  -0.0005   0.0005  -0.0003   0.00   30.6
2024/03/20 00:45:40.000  -2599929.5350   4786485.2528   3307118.3042   1  17   0.0005   0.0008   0.0005  -0.0005   0.0005  -0.0003   0.00   30.5
2024/03/20 00:45:50.000  -2599929.5350   4786485.2528   3307118.3042   1  17   0.0005   0.0008   0.0005  -0.0005   0.0005  -0.0003   0.00   30.5
2024/03/20 00:46:00.000  -2599929.5350   4786485.2529   3307118.3043   1  17   0.0005   0.0008   0.0005  -0.0005   0.0005  -0.0003   0.00   30.4
2024/03/20 00:46:10.000  -2599929.5350   4786485.2529   3307118.3043   1  17   0.0005   0.0008   0.0005  -0.0005   0.0005  -0.0003   0.00   30.4
2024/03/20 00:46:20.000  -2599929.5350   4786485.2529   3307118.3044   1  17   0.0005   0.0008   0.0005  -0.0005   0.0005  -0.0003   0.00   30.4
2024/03/20 00:46:30.000  -2599929.5351   4786485.2530   3307118.3044   1  17   0.0005   0.0008   0.0005  -0.0005   0.0005  -0.0003   0.00   30.3
2024/03/20 00:46:40.000  -2599929.5351   4786485.2530   3307118.3044   1  17   0.0005   0.0008   0.0005  -0.0005   0.0005  -0.0003   0.00   30.4
2024/03/20 00:46:50.000  -2599929.5351   4786485.2530   3307118.3045   1  17   0.0005   0.0008   0.0005  -0.0005   0.0005  -0.0003   0.00   30.4
2024/03/20 00:47:00.000  -2599929.5351   4786485.2531   3307118.3045   1  17   0.0005   0.0008   0.0005  -0.0005   0.0005  -0.0003   0.00   30.4
2024/03/20 00:47:10.000  -2599929.5351   4786485.2531   3307118.3045   1  17   0.0005   0.0008   0.0005  -0.0005   0.0005  -0.0003   5.00   30.5
2024/03/20 00:47:20.000  -2599929.5351   4786485.2531   3307118.3045   1  17   0.0005   0.0008   0.0005  -0.0005   0.0005  -0.0003   0.00   30.5
2024/03/20 00:47:30.000  -2599929.5351   4786485.2531   3307118.3046   1  17   0.0005   0.0008   0.0005  -0.0005   0.0005  -0.0003   0.00   30.5
2024/03/20 00:47:40.000  -2599929.5351   4786485.2531   3307118.3046   1  17   0.0005   0.0008   0.0005  -0.0005   0.0005  -0.0003   0.00   30.6
2024/03/20 00:47:50.000  -2599929.5351   4786485.2531   3307118.3046   1  17   0.0005   0.0008   0.0005  -0.0005   0.0005  -0.0003   0.00   30.6
2024/03/20 00:48:00.000  -2599929.5350   4786485.2531   3307118.3047   1  17   0.0005   0.0008   0.0005  -0.0005   0.0005  -0.0003   0.00   30.6
2024/03/20 00:48:10.000  -2599929.5350   4786485.2531   3307118.3047   1  17   0.0005   0.0008   0.0005  -0.0005   0.0005  -0.0003   0.00   30.7
2024/03/20 00:48:20.000  -2599929.5349   4786485.2530   3307118.3047   1  17   0.0005   0.0008   0.0005  -0.0005   0.0005  -0.0003   0.00   30.8
2024/03/20 00:48:30.000  -2599929.5349   4786485.2530   3307118.3047   1  17   0.0005   0.0008   0.0005  -0.0005   0.0005  -0.0003   0.00   30.9
2024/03/20 00:48:40.000  -2599929.5349   4786485.2530   3307118.3048   1  17   0.0005   0.0008   0.0005  -0.0005   0.0005  -0.0003   0.00   30.9
2024/03/20 00:48:50.000  -2599929.5349   4786485.2531   3307118.3048   1  17   0.0005   0.0008   0.0005  -0.0005   0.0005  -0.0003   0.00   31.0
2024/03/20 00:49:00.000  -2599929.5349   4786485.2531   3307118.3048   1  17   0.0005   0.0008   0.0005  -0.0005   0.0005  -0.0003   0.00   31.0
2024/03/20 00:49:10.000  -2599929.5349   4786485.2530   3307118.3048   1  17   0.0005   0.0008   0.0005  -0.0005   0.0005  -0.0003   0.00   31.1
2024/03/20 00:49:20.000  -2599929.5348   4786485.2530   3307118.3048   1  18   0.0005   0.0008   0.0005  -0.0005   0.0005  -0.0003   0.00   31.2
2024/03/20 00:49:30.000  -2599929.5348   4786485.2531   3307118.3049   1  18   0.0005   0.0008   0.0005  -0.0005   0.0005  -0.0003   0.00   31.2
2024/03/20 00:49:40.000  -2599929.5348   4786485.2530   3307118.3049   1  17   0.0005   0.0008   0.0005  -0.0005   0.0005  -0.0003   0.00   31.3
2024/03/20 00:49:50.000  -2599929.5348   4786485.2530   3307118.3049   1  18   0.0005   0.0008   0.0005  -0.0005   0.0005  -0.0003   0.00   31.4
2024/03/20 00:50:00.000  -2599929.5348   4786485.2531   3307118.3049   1  18   0.0005   0.0008   0.0005  -0.0005   0.0005  -0.0003   0.00   31.4
2024/03/20 00:50:10.000  -2599929.5347   4786485.2531   3307118.3049   1  18   0.0005   0.0008   0.0005  -0.0005   0.0005  -0.0003   0.00   31.4
2024/03/20 00:50:20.000  -2599929.5347   4786485.2531   3307118.3049   1  18   0.0005   0.0008   0.0005  -0.0005   0.0005  -0.0003   0.00   31.4
2024/03/20 00:50:30.000  -2599929.5347   4786485.2531   3307118.3049   1  17   0.0005   0.0008   0.0005  -0.0005   0.0005  -0.0003   0.00   31.4
2024/03/20 00:50:40.000  -2599929.5347   4786485.2531   3307118.3050   1  17   0.0005   0.0008   0.0005  -0.0005   0.0005  -0.0003   0.00   31.6
2024/03/20 00:50:50.000  -2599929.5347   4786485.2531   3307118.3050   1  17   0.0005   0.0008   0.0005  -0.0005   0.0005  -0.0003   0.00   31.7
2024/03/20 00:51:00.000  -2599929.5347   4786485.2531   3307118.3050   1  17   0.0005   0.0008   0.0005  -0.0005   0.0005  -0.0003   0.00   31.7
2024/03/20 00:51:10.000  -2599929.5347   4786485.2531   3307118.3050   1  17   0.0005   0.0008   0.0005  -0.0005   0.0005  -0.0003   0.00   31.8
2024/03/20 00:51:20.000  -2599929.5346   4786485.2530   3307118.3050   1  17   0.0005   0.0008   0.0005  -0.0005   0.0005  -0.0003   0.00   31.7
2024/03/20 00:51:30.000  -2599929.5346   4786485.2530   3307118.3050   1  17   0.0005   0.0008   0.0005  -0.0005   0.0005  -0.0003   0.00   31.8
2024/03/20 00:51:40.000  -2599929.5346   4786485.2530   3307118.3050   1  17   0.0005   0.0008   0.0005  -0.0005   0.0005  -0.0003   0.00   31.8
2024/03/20 00:51:50.000  -2599929.5345   4786485.2529   3307118.3050   1  17   0.0005   0.0008   0.0005  -0.0005   0.0005  -0.0003   0.00   31.8
2024/03/20 00:52:00.000  -2599929.5345   4786485.2529   3307118.3050   1  17   0.0005   0.0008   0.0005  -0.0005   0.0005  -0.0003   0.00   31.7
2024/03/20 00:52:10.000  -2599929.5345   4786485.2529   3307118.3050   1  17   0.0005   0.0008   0.0005  -0.0005   0.0005  -0.0003   0.00   31.7
2024/03/20 00:52:20.000  -2599929.5345   4786485.2529   3307118.3050   1  17   0.0005   0.0008   0.0005  -0.0005   0.0005  -0.0003   0.00   31.7
2024/03/20 00:52:30.000  -2599929.5345   4786485.2529   3307118.3051   1  17   0.0005   0.0008   0.0005  -0.0005   0.0005  -0.0003   0.00   31.6
2024/03/20 00:52:40.000  -2599929.5344   4786485.2529   3307118.3050   1  17   0.0005   0.0008   0.0005  -0.0005   0.0005  -0.0003   0.00   31.6
2024/03/20 00:52:50.000  -2599929.5344   4786485.2528   3307118.3050   1  17   0.0005   0.0008   0.0005  -0.0005   0.0005  -0.0003   0.00   31.6
2024/03/20 00:53:00.000  -2599929.5344   4786485.2528   3307118.3051   1  17   0.0005   0.0008   0.0005  -0.0005   0.0005  -0.0003   0.00   31.7
2024/03/20 00:53:10.000  -2599929.5343   4786485.2528   3307118.3051   1  18   0.0005   0.0007   0.0005  -0.0005   0.0005  -0.0003   0.00   31.7
2024/03/20 00:53:20.000  -2599929.5343   4786485.2528   3307118.3051   1  18   0.0005   0.0007   0.0005  -0.0005   0.0005  -0.0003   0.00   31.8
2024/03/20 00:53:30.000  -2599929.5343   4786485.2528   3307118.3051   1  18   0.0005   0.0007   0.0005  -0.0005   0.0005  -0.0003   0.00   31.8
2024/03/20 00:53:40.000  -2599929.5343   4786485.2527   3307118.3051   1  18   0.0005   0.0007   0.0005  -0.0005   0.0005  -0.0003   0.00   31.8
2024/03/20 00:53:50.000  -2599929.5342   4786485.2527   3307118.3051   1  18   0.0005   0.0007   0.0005  -0.0005   0.0005  -0.0003   0.00   31.8
2024/03/20 00:54:00.000  -2599929.5342   4786485.2527   3307118.3051   1  18   0.0005   0.0007   0.0005  -0.0005   0.0005  -0.0003   0.00   32.0
2024/03/20 00:54:10.000  -2599929.5341   4786485.2526   3307118.3051   1  18   0.0005   0.0007   0.0005  -0.0005   0.0005  -0.0003   0.00   32.2
2024/03/20 00:54:20.000  -2599929.5341   4786485.2525   3307118.3051   1  18   0.0005   0.0007   0.0005  -0.0005   0.0005  -0.0003   0.00   32.2
2024/03/20 00:54:30.000  -2599929.5341   4786485.2526   3307118.3051   1  18   0.0005   0.0007   0.0005  -0.0005   0.0005  -0.0003   0.00   32.3
2024/03/20 00:54:40.000  -2599929.5340   4786485.2525   3307118.3051   1  18   0.0005   0.0007   0.0005  -0.0005   0.0005  -0.0003   0.00   32.4
2024/03/20 00:54:50.000  -2599929.5340   4786485.2525   3307118.3051   1  18   0.0005   0.0007   0.0005  -0.0005   0.0005  -0.0003   0.00   32.4
2024/03/20 00:55:00.000  -2599929.5340   4786485.2525   3307118.3052   1  18   0.0005   0.0007   0.0005  -0.0005   0.0005  -0.0003   0.00   32.3
2024/03/20 00:55:10.000  -2599929.5339   4786485.2525   3307118.3052   1  18   0.0005   0.0007   0.0005  -0.0005   0.0005  -0.0003   0.00   32.4
2024/03/20 00:55:20.000  -2599929.5339   4786485.2525   3307118.3052   1  18   0.0005   0.0007   0.0005  -0.0005   0.0005  -0.0003   0.00   32.5
2024/03/20 00:55:30.000  -2599929.5339   4786485.2524   3307118.3052   1  18   0.0005   0.0007   0.0005  -0.0005   0.0005  -0.0003   0.00   32.6
2024/03/20 00:55:40.000  -2599929.5339   4786485.2524   3307118.3053   1  18   0.0005   0.0007   0.0005  -0.0005   0.0005  -0.0003   0.00   32.7
2024/03/20 00:55:50.000  -2599929.5339   4786485.2524   3307118.3053   1  18   0.0005   0.0007   0.0005  -0.0005   0.0005  -0.0003   0.00   32.7
2024/03/20 00:56:00.000  -2599929.5339   4786485.2524   3307118.3053   1  18   0.0005   0.0007   0.0005  -0.0005   0.0005  -0.0003   0.00   32.7
2024/03/20 00:56:10.000  -2599929.5339   4786485.2524   3307118.3054   1  18   0.0005   0.0007   0.0005  -0.0005   0.0005  -0.0003   0.00   32.8
2024/03/20 00:56:20.000  -2599929.5339   4786485.2524   3307118.3054   1  18   0.0005   0.0007   0.0005  -0.0005   0.0005  -0.0003   0.00   32.9
2024/03/20 00:56:30.000  -2599929.5338   4786485.2524   3307118.3054   1  18   0.0005   0.0007   0.0005  -0.0005   0.0005  -0.0003   0.00   32.9
2024/03/20 00:56:40.000  -2599929.5338   4786485.2524   3307118.3055   1  18   0.0005   0.0007   0.0005  -0.0005   0.0005  -0.0003   0.00   32.9
2024/03/20 00:56:50.000  -2599929.5338   4786485.2523   3307118.3055   1  18   0.0005   0.0007   0.0005  -0.0005   0.0005  -0.0003   0.00   32.9
2024/03/20 00:57:00.000  -2599929.5337   4786485.2523   3307118.3054   1  18   0.0005   0.0007   0.0005  -0.0005   0.0005  -0.0003   0.00   33.0
2024/03/20 00:57:10.000  -2599929.5337   4786485.2522   3307118.3054   1  18   0.0005   0.0007   0.0005  -0.0005   0.0005  -0.0003   0.00   33.0
2024/03/20 00:57:20.000  -2599929.5337   4786485.2522   3307118.3054   1  18   0.0005   0.0007   0.0005  -0.0005   0.0005  -0.0003   0.00   33.0
2024/03/20 00:57:30.000  -2599929.5337   4786485.2521   3307118.3054   1  18   0.0005   0.0007   0.0005  -0.0005   0.0005  -0.0003   0.00   33.1
2024/03/20 00:57:40.000  -2599929.5336   4786485.2521   3307118.3054   1  18   0.0005   0.0007   0.0005  -0.0005   0.0005  -0.0003   0.00   33.2
2024/03/20 00:57:50.000  -2599929.5336   4786485.2521   3307118.3054   1  17   0.0005   0.0007   0.0005  -0.0005   0.0005  -0.0003   0.00   33.3
2024/03/20 00:58:00.000  -2599929.5336   4786485.2521   3307118.3054   1  18   0.0005   0.0007   0.0005  -0.0005   0.0005  -0.0003   0.00   33.4
2024/03/20 00:58:10.000  -2599929.5336   4786485.2521   3307118.3054   1  17   0.0005   0.0007   0.0005  -0.0005   0.0005  -0.0003   0.00   33.5
2024/03/20 00:58:20.000  -2599929.5336   4786485.2520   3307118.3054   1  17   0.0005   0.0007   0.0005  -0.0005   0.0005  -0.0003   0.00   33.6
2024/03/20 00:58:30.000  -2599929.5335   4786485.2520   3307118.3054   1  17   0.0005   0.0007   0.0005  -0.0005   0.0005  -0.0003   0.00   33.6
2024/03/20 00:58:40.000  -2599929.5335   4786485.2519   3307118.3054   1  17   0.0005   0.0007   0.0005  -0.0005   0.0005  -0.0003   0.00   33.7
2024/03/20 00:58:50.000  -2599929.5335   4786485.2519   3307118.3054   1  17   0.0005   0.0007   0.0005  -0.0005   0.0005  -0.0003   0.00   33.8
2024/03/20 00:59:00.000  -2599929.5334   4786485.2518   3307118.3053   1  17   0.0005   0.0007   0.0005  -0.0005   0.0005  -0.0003   0.00   33.9
2024/03/20 00:59:10.000  -2599929.5334   4786485.2518   3307118.3053   1  17   0.0005   0.0007   0.0005  -0.0005   0.0005  -0.0003   0.00   33.9
2024/03/20 00:59:20.000  -2599929.5334   4786485.2517   3307118.3053   1  17   0.0005   0.0007   0.0005  -0.0005   0.0005  -0.0003   0.00   34.0
2024/03/20 00:59:30.000  -2599929.5333   4786485.2517   3307118.3053   1  17   0.0005   0.0007   0.0005  -0.0005   0.0005  -0.0003   0.00   34.1
2024/03/20 00:59:40.000  -2599929.5333   4786485.2516   3307118.3053   1  17   0.0005   0.0007   0.0005  -0.0005   0.0005  -0.0003   0.00   34.2
2024/03/20 00:59:50.000  -2599929.5333   4786485.2516   3307118.3052   1  17   0.0005   0.0007   0.0005  -0.0005   0.0005  -0.0003   0.00   34.4
2024/03/20 01:00:00.000  -2599929.5332   4786485.2516   3307118.3052   1  17   0.0005   0.0007   0.0005  -0.0005   0.0005  -0.0003   0.00   34.4
2024/03/20 01:00:10.000  -2599929.5333   4786485.2516   3307118.3053   1  18   0.0005   0.0007   0.0005  -0.0005   0.0004  -0.0003   0.00    3.7
2024/03/20 01:00:20.000  -2599929.5258   4786485.2492   3307118.2990   2  18   0.0015   0.0027   0.0013  -0.0017   0.0014  -0.0011   0.00    0.0
2024/03/20 01:00:30.000  -2599929.5258   4786485.2492   3307118.2990   2  18   0.0015   0.0027   0.0013  -0.0017   0.0014  -0.0011   0.00    0.0
2024/03/20 01:00:40.000  -2599929.5258   4786485.2492   3307118.2990   2  18   0.0015   0.0027   0.0013  -0.0017   0.0014  -0.0011   0.00    0.0
2024/03/20 01:00:50.000  -2599929.5258   4786485.2492   3307118.2990   2  18   0.0015   0.0027   0.0013  -0.0017   0.0014  -0.0011   0.00    0.0
2024/03/20 01:01:00.000  -2599929.5258   4786485.2492   3307118.2990   2  18   0.0015   0.0027   0.0013  -0.0017   0.0014  -0.0011   0.00    0.0
2024/03/20 01:01:10.000  -2599929.5258   4786485.2492   3307118.2990   2  18   0.0015   0.0027   0.0013  -0.0017   0.0014  -0.0011   0.00    0.0
2024/03/20 01:01:20.000  -2599929.5258   4786485.2492   3307118.2990   2  18   0.0015   0.0027   0.0013  -0.0017   0.0014  -0.0011   0.00    0.0
2024/03/20 01:01:30.000  -2599929.5258   4786485.2492   3307118.2990   2  18   0.0015   0.0027   0.0013  -0.0017   0.0014  -0.0011   0.00    0.0
2024/03/20 01:01:40.000  -2599929.5258   4786485.2492   3307118.2990   2  18   0.0015   0.0027   0.0013  -0.0017   0.0014  -0.0011   0.00    0.0
2024/03/20 01:01:50.000  -2599929.5258   4786485.2492   3307118.2990   2  18   0.0015   0.0027   0.0013  -0.0017   0.0014  -0.0011   0.00    0.0
2024/03/20 01:02:00.000  -2599929.5258   4786485.2492   3307118.2990   2  18   0.0015   0.0027   0.0013  -0.0017   0.0014  -0.0011   0.00    0.0
2024/03/20 01:02:10.000  -2599929.5258   4786485.2492   3307118.2990   2  18   0.0015   0.0027   0.0013  -0.0017   0.0014  -0.0011   0.00    0.0
2024/03/20 01:02:20.000  -2599929.5258   4786485.2492   3307118.2990   2  18   0.0015   0.0027   0.0013  -0.0017   0.0014  -0.0011   0.00    0.0
2024/03/20 01:02:30.000  -2599929.5291   4786485.2489   3307118.3023   1  18   0.0010   0.0016   0.0009  -0.0010   0.0009  -0.0007   0.00   10.8
2024/03/20 01:02:40.000  -2599929.5288   4786485.2485   3307118.3020   1  18   0.0010   0.0015   0.0009  -0.0010   0.0009  -0.0006   0.00   10.7
2024/03/20 01:02:50.000  -2599929.5289   4786485.2484   3307118.3021   1  18   0.0010   0.0015   0.0009  -0.0010   0.0008  -0.0006   0.00   10.6
2024/03/20 01:03:00.000  -2599929.5290   4786485.2483   3307118.3021   1  18   0.0010   0.0015   0.0009  -0.0010   0.0008  -0.0006   0.00   10.5
2024/03/20 01:03:10.000  -2599929.5290   4786485.2482   3307118.3021   1  18   0.0009   0.0014   0.0008  -0.0010   0.0008  -0.0006   0.00   10.6
2024/03/20 01:03:20.000  -2599929.5291   4786485.2481   3307118.3022   1  18   0.0009   0.0014   0.0008  -0.0009   0.0008  -0.0006   0.00   10.7
2024/03/20 01:03:30.000  -2599929.5292   4786485.2481   3307118.3023   1  18   0.0009   0.0014   0.0008  -0.0009   0.0008  -0.0006   0.00   10.9
2024/03/20 01:03:40.000  -2599929.5292   4786485.2481   3307118.3023   1  18   0.0009   0.0014   0.0008  -0.0009   0.0008  -0.0006   0.00   10.9
2024/03/20 01:03:50.000  -2599929.5293   4786485.2481   3307118.3024   1  18   0.0009   0.0013   0.0008  -0.0009   0.0008  -0.0006   0.00   10.9
2024/03/20 01:04:00.000  -2599929.5295   4786485.2482   3307118.3025   1  18   0.0009   0.0013   0.0008  -0.0009   0.0008  -0.0005   0.00   10.9
2024/03/20 01:04:10.000  -2599929.5296   4786485.2483   3307118.3027   1  18   0.0009   0.0013   0.0008  -0.0009   0.0007  -0.0005   0.00   10.9
2024/03/20 01:04:20.000  -2599929.5298   4786485.2484   3307118.3027   1  18   0.0008   0.0013   0.0008  -0.0008   0.0007  -0.0005   0.00   11.0
2024/03/20 01:04:30.000  -2599929.5298   4786485.2484   3307118.3028   1  18   0.0008   0.0013   0.0008  -0.0008   0.0007  -0.0005   0.00   11.0
2024/03/20 01:04:40.000  -2599929.5299   4786485.2483   3307118.3029   1  18   0.0008   0.0012   0.0007  -0.0008   0.0007  -0.0005   0.00   11.1
2024/03/20 01:04:50.000  -2599929.5299   4786485.2483   3307118.3030   1  18   0.0008   0.0012   0.0007  -0.0008   0.0007  -0.0005   0.00   11.1
2024/03/20 01:05:00.000  -2599929.5303   4786485.2487   3307118.3036   1  18   0.0008   0.0012   0.0008  -0.0008   0.0007  -0.0005   0.00   11.5
2024/03/20 01:05:10.000  -2599929.5304   4786485.2488   3307118.3037   1  18   0.0008   0.0012   0.0007  -0.0008   0.0007  -0.0005   0.00   11.6
2024/03/20 01:05:20.000  -2599929.5299   4786485.2483   3307118.3031   1  18   0.0008   0.0012   0.0007  -0.0008   0.0007  -0.0005   0.00   11.5
2024/03/20 01:05:30.000  -2599929.5299   4786485.2483   3307118.3031   1  18   0.0008   0.0012   0.0007  -0.0008   0.0007  -0.0005   0.00   11.6
2024/03/20 01:05:40.000  -2599929.5300   4786485.2483   3307118.3032   1  18   0.0008   0.0011   0.0007  -0.0008   0.0007  -0.0005   0.00   11.6
2024/03/20 01:05:50.000  -2599929.5299   4786485.2481   3307118.3030   1  17   0.0008   0.0011   0.0007  -0.0008   0.0007  -0.0005   0.00   15.5
2024/03/20 01:06:00.000  -2599929.5305   4786485.2486   3307118.3037   1  16   0.0008   0.0011   0.0007  -0.0008   0.0007  -0.0005   0.00   21.1
2024/03/20 01:06:10.000  -2599929.5306   4786485.2488   3307118.3039   1  17   0.0008   0.0011   0.0007  -0.0008   0.0007  -0.0005   0.00   11.4
2024/03/20 01:06:20.000  -2599929.5302   4786485.2483   3307118.3033   1  18   0.0007   0.0011   0.0007  -0.0007   0.0006  -0.0005   0.00   11.3
2024/03/20 01:06:30.000  -2599929.5302   4786485.2482   3307118.3033   1  18   0.0007   0.0011   0.0007  -0.0007   0.0006  -0.0004   0.00   11.4
2024/03/20 01:06:40.000  -2599929.5302   4786485.2482   3307118.3034   1  18   0.0007   0.0011   0.0007  -0.0007   0.0006  -0.0004   0.00   11.5
2024/03/20 01:06:50.000  -2599929.5303   4786485.2482   3307118.3034   1  18   0.0007   0.0011   0.0007  -0.0007   0.0006  -0.0004   0.00   11.6
2024/03/20 01:07:00.000  -2599929.5303   4786485.2482   3307118.3035   1  18   0.0007   0.0011   0.0007  -0.0007   0.0006  -0.0004   0.00   11.7
2024/03/20 01:07:10.000  -2599929.5303   4786485.2482   3307118.3035   1  18   0.0007   0.0010   0.0007  -0.0007   0.0006  -0.0004   0.00   11.7
2024/03/20 01:07:20.000  -2599929.5304   4786485.2482   3307118.3035   1  18   0.0007   0.0010   0.0006  -0.0007   0.0006  -0.0004   0.00   11.8
2024/03/20 01:07:30.000  -2599929.5304   4786485.2482   3307118.3036   1  18   0.0007   0.0010   0.0006  -0.0007   0.0006  -0.0004   0.00   11.9
2024/03/20 01:07:40.000  -2599929.5305   4786485.2483   3307118.3036   1  18   0.0007   0.0010   0.0006  -0.0007   0.0006  -0.0004   0.00   12.1
2024/03/20 01:07:50.000  -2599929.5310   4786485.2488   3307118.3044   1  18   0.0007   0.0010   0.0007  -0.0007   0.0006  -0.0004   0.00   12.7
2024/03/20 01:08:00.000  -2599929.5311   4786485.2488   3307118.3044   1  18   0.0007   0.0010   0.0006  -0.0007   0.0006  -0.0004   0.00   12.8
